City_ID,City,Country,Max Temp,Current Description,Lat,Lng,Hotel Name
0,Kirakira,SB,79.65,few clouds,-10.4544,161.9205,SanBiz Lodge
1,Hojai,IN,78.82,scattered clouds,26.0,92.8667,Luxury park hotel
2,Tuktoyaktuk,CA,71.6,few clouds,69.4541,-133.0374,End of The Road Ltd.
3,Hilo,US,73.26,light rain,19.7297,-155.09,Hilo Hawaiian Hotel
4,Abu Samrah,SY,84.25,clear sky,35.3029,37.1841,
6,Rikitea,PF,74.07,light rain,-23.1203,-134.9692,People ThankYou
9,Kapaa,US,77.32,broken clouds,22.0752,-159.319,Sheraton Kauai Coconut Beach Resort
10,Mayo,US,92.21,clear sky,38.8876,-76.5119,Resorts Resource Group International
11,Mogadishu,SO,77.36,light rain,2.0371,45.3438,Hotel Juba
12,Saint-Georges,GD,85.68,few clouds,12.0564,-61.7485,Radisson Grenada Beach Resort
13,Lorengau,PG,81.34,overcast clouds,-2.0226,147.2712,Lorengau Harbourside Hotel
16,Karpathos,GR,78.76,few clouds,35.507,27.2132,Alex
18,Albany,US,80.94,overcast clouds,42.6001,-73.9662,
20,Bulungu,CD,85.93,broken clouds,-4.55,18.6,Maison MC Michel
21,Morristown,US,86.95,broken clouds,36.214,-83.2949,Days Inn by Wyndham Morristown
22,Lasa,IT,80.37,scattered clouds,46.6166,10.7002,Pension Feldgärtenhof
23,Puerto Ayora,EC,76.96,broken clouds,-0.7393,-90.3518,Finch Bay Galapagos Hotel
24,Broome,US,78.98,light rain,42.2506,-75.833,Chenango Valley State Park
27,Port-Gentil,GA,78.76,scattered clouds,-0.7193,8.7815,Fengshui Residence
28,Gushi,CN,77.27,scattered clouds,34.6425,109.5843,Wansheng Yuan Hotel
30,Matamoros,MX,82.51,scattered clouds,25.5333,-103.25,Quinta Belem
31,Salalah,OM,84.29,overcast clouds,17.0151,54.0924,"HAMDAN PLAZA HOTEL SALALAH, an HTG Hotel"
32,Komsomolskiy,UZ,84.92,clear sky,40.4272,71.7189,Ikathouse
33,Ribeira Grande,PT,72.0,few clouds,38.5167,-28.7,Quinta da Meia Eira
34,East London,ZA,72.54,clear sky,-33.0153,27.9116,Tu Casa
39,Keffi,NG,82.69,light rain,8.8486,7.8736,Imam Family
48,Georgetown,MY,85.95,few clouds,5.4112,100.3354,Cititel Penang
50,Fukue,JP,78.58,overcast clouds,32.6881,128.8419,Goto Guesthouse Utojuku & SA Car Rental
53,Samarai,PG,80.22,broken clouds,-10.6167,150.6667,Nuli Sapi
54,Jamestown,US,75.02,overcast clouds,42.097,-79.2353,Hampton Inn & Suites Jamestown
55,Yarada,IN,84.61,overcast clouds,17.65,83.2667,Yarada Jungle Beach Resorts
56,Mahebourg,MU,71.89,scattered clouds,-20.4081,57.7,Shandrani Beachcomber Resort & Spa
60,Yaring,TH,81.0,overcast clouds,6.8662,101.3689,สถานที่จัดงานแต่ง SOFEE & DORN
68,Avera,US,86.05,clear sky,33.194,-82.5271,
72,Yerakion,GR,83.75,few clouds,37.0,22.7,Xenonas Nikia
75,Cidreira,BR,70.11,broken clouds,-30.1811,-50.2056,Hotel Castelo
77,Saint-Francois,FR,81.84,clear sky,46.4154,3.9054,Manoir Du Bonheur
80,Maraa,BR,91.6,few clouds,-1.8333,-65.3667,
82,Along,IN,76.08,broken clouds,28.1667,94.7667,Hotel West
83,Port Alfred,ZA,74.17,clear sky,-33.5906,26.891,The Halyards Hotel
85,Xuddur,SO,74.82,overcast clouds,4.1213,43.8894,Banjanay Hotel
86,Sao Joao Da Barra,BR,80.69,scattered clouds,-21.6403,-41.0511,Pousada Porto De Canoas
89,Neiafu,TO,75.88,few clouds,-18.65,-173.9833,Mystic Sands Beachfront Accommodation
90,Butaritari,KI,83.19,light rain,3.0707,172.7902,Isles Sunset Lodge
91,Les Cayes,HT,88.18,overcast clouds,18.2,-73.75,Villa Orphee
92,Margate,GB,71.69,overcast clouds,51.3813,1.3862,Premier Inn Margate hotel
94,Oussouye,SN,91.58,overcast clouds,12.485,-16.5469,Auberge du Routard
96,Misratah,LY,88.07,clear sky,32.3754,15.0925,Almasa Hotel
97,Dwarka,IN,84.38,overcast clouds,22.2394,68.9678,Hotel Narayan Avezika Comfort
98,San Cristobal,VE,78.98,broken clouds,7.7669,-72.225,Pirineos
99,Vilhena,BR,84.42,scattered clouds,-12.7406,-60.1458,Hotel Mirage
100,Karaton,ID,73.76,scattered clouds,-6.3424,106.1045,Parkir Mobil Wisata CAS Water Park
106,Saint George,US,93.63,clear sky,37.1041,-113.5841,Best Western Plus Abbey Inn
108,Cabo San Lucas,MX,94.6,clear sky,22.8909,-109.9124,Hotel Tesoro Los Cabos
110,Calabozo,VE,84.99,scattered clouds,8.9242,-67.4293,Hotel Giardini
111,Surt,LY,82.67,clear sky,31.2089,16.5887,الهادي ابوشعاله سرت
113,Pringsewu,ID,73.49,broken clouds,-5.3582,104.9744,Urban Style by Front One
114,Poum,NC,76.98,overcast clouds,-20.2333,164.0167,
116,Victoria,HK,84.33,overcast clouds,22.2855,114.1577,Mini Central
118,Santa Isabel Do Rio Negro,BR,91.49,few clouds,-0.4139,-65.0192,Hotel GSA
119,Kavieng,PG,82.02,light rain,-2.5744,150.7967,Nusa Island Retreat
120,Touros,BR,83.73,broken clouds,-5.1989,-35.4608,INN NEW HORIZON
121,West Wendover,US,81.61,clear sky,40.7391,-114.0733,"Motel 6 Wendover, UT"
124,Souillac,MU,71.98,scattered clouds,-20.5167,57.5167,Shanti Maurice Resort & Spa
125,Alyangula,AU,72.34,overcast clouds,-13.8483,136.4192,Groote Eylandt Lodge
126,Atuona,PF,77.5,few clouds,-9.8,-139.0333,Villa Enata
127,Avarua,CK,73.45,scattered clouds,-21.2078,-159.775,Paradise Inn
129,Hami,CN,83.95,scattered clouds,42.8,93.45,Laoyutang Resort
131,Mahibadhoo,MV,82.72,overcast clouds,3.7833,72.9667,Omadhoo Inn
133,Bubaque,GW,81.07,broken clouds,11.2833,-15.8333,"Casa Dora, Bubaque"
134,Alofi,NU,71.49,few clouds,-19.0595,-169.9187,Taloa Heights
136,Padang,ID,76.26,scattered clouds,-0.9492,100.3543,Mercure Padang
137,Vaini,TO,71.76,few clouds,-21.2,-175.2,Keleti Beach Resort
138,Dingle,PH,77.43,overcast clouds,10.9995,122.6711,SEGAYA PROPERTY
140,Castro,BR,71.28,clear sky,-24.7911,-50.0119,CHACARA BAILLY
141,Xuanhua,CN,73.51,overcast clouds,40.6103,115.0447,Jinjiang Inn Zhangjiakou Xuanhua People's Park
142,Claremore,US,91.27,overcast clouds,36.3126,-95.6161,Super 8 by Wyndham Claremore OK
143,Wanning,CN,79.66,moderate rain,18.8003,110.3967,Paradise Hotel
145,Onalaska,US,78.85,clear sky,43.8844,-91.2351,Stoney Creek Hotel La Crosse - Onalaska
146,Terekli-Mekteb,RU,73.35,overcast clouds,44.1671,45.8698,"Gostevoy Dvor ""U Gul'zary"""
148,Russell,US,86.97,broken clouds,32.3502,-85.1999,Macs
149,Cap Malheureux,MU,70.47,overcast clouds,-19.9842,57.6142,Pereybere Hotel & Spa
150,Mayumba,GA,73.33,broken clouds,-3.432,10.6554,LIKWALE LODGE
151,Kulu,TR,73.51,clear sky,39.0951,33.0799,Kapadokya Motel
153,Pouembout,NC,71.24,overcast clouds,-21.1333,164.9,Camping de Tipenga
156,Kutum,SD,83.17,overcast clouds,14.2,24.6667,Dibbo areaمنطقة دبو
157,Lakefield,US,79.99,clear sky,43.6775,-95.1717,Wind Mill Motel
158,Kloulklubed,PW,77.5,overcast clouds,7.0419,134.2556,Storyboard Beach Resort
159,Aklavik,CA,75.2,haze,68.2191,-135.0107,Aklavik Inn
163,Hithadhoo,MV,83.35,heavy intensity rain,-0.6,73.0833,Scoop Guest House
164,Katsuura,JP,75.72,scattered clouds,35.1333,140.3,Katsuura Hotel Mikazuki
166,Tautira,PF,76.17,light rain,-17.7333,-149.15,Pension Oaoa
168,Sorong,ID,78.69,light rain,-0.8833,131.25,Waigo Splash Hotel
169,Ponta Do Sol,PT,75.83,broken clouds,32.6667,-17.1,Hotel do Campo
170,Ternate,ID,80.58,broken clouds,0.8,127.4,Sahid Bela Ternate Hotel
173,Arraial Do Cabo,BR,78.76,clear sky,-22.9661,-42.0278,Pousada Porto Praia
174,Praia Da Vitoria,PT,70.75,scattered clouds,38.7333,-27.0667,Hotel Branco I
175,Ende,ID,77.88,overcast clouds,-8.8432,121.6623,Dwi Putra Hotel - Ende
176,Hua Hin,TH,85.89,overcast clouds,12.5707,99.9588,"InterContinental Hua Hin Resort, an IHG Hotel"
177,Kahului,US,78.84,clear sky,20.8947,-156.47,Maui Seaside Hotel
179,Kailua,US,77.02,broken clouds,21.4022,-157.7394,Sheffield House Bed & Breakfast
181,Edgewater,US,91.02,heavy intensity rain,28.9889,-80.9023,Islander Beach Resort
184,Hambantota,LK,80.33,few clouds,6.1241,81.1185,Bungalow 63
185,Colonia,DE,83.91,clear sky,50.9333,6.95,Mauritius Hotel & Therme
186,Ouegoa,NC,74.16,overcast clouds,-20.35,164.4333,
188,Bambous Virieux,MU,71.85,scattered clouds,-20.3428,57.7575,Casa Tia Villa
190,Mitsamiouli,KM,77.29,few clouds,-11.3847,43.2844,Foyer ADM
192,Ocampo,MX,72.41,broken clouds,21.65,-101.5,Hotel Estancia del Vaquero
195,Bethel,US,86.76,clear sky,41.3712,-73.414,Courtyard by Marriott Danbury
198,Amapa,BR,84.27,scattered clouds,1.0,-52.0,
199,Puntarenas,CR,81.84,overcast clouds,9.9763,-84.8384,Michael's Surfside Hotel
204,Cockburn Town,TC,81.81,scattered clouds,21.4612,-71.1419,Osprey Beach Hotel
205,Zemio,CF,71.1,light rain,5.0314,25.1361,OCHA Office
209,Salinopolis,BR,82.74,few clouds,-0.6136,-47.3561,Salinas Park Resort Maçarico AP101
210,Hobyo,SO,78.1,overcast clouds,5.3505,48.5268,Iftin hotel hobyo
212,Yangjiang,CN,78.78,light rain,21.85,111.9667,HUALUXE Yangjiang City Center
213,Namibe,AO,70.74,clear sky,-15.1961,12.1522,Hotel Chik Chik Namibe
218,Palma,ES,91.2,clear sky,39.5694,2.6502,Hotel Saratoga
220,Marietta,US,88.32,broken clouds,33.9526,-84.5499,Hilton Atlanta/Marietta Hotel & Conference Center
221,Nikolskoye,RU,85.89,overcast clouds,59.7035,30.7861,Tourist House - Sablino
222,Adoni,IN,83.1,moderate rain,15.6333,77.2833,Bheemas Regency
223,Nusaybin,TR,92.98,clear sky,37.0778,41.2178,Aydinlar Hotel
224,Thomaston,US,87.58,scattered clouds,32.8882,-84.3266,Days Inn by Wyndham Thomaston
226,Rangapara,IN,81.34,overcast clouds,26.8167,92.65,Bidhan
229,Mwene-Ditu,CD,75.87,few clouds,-7.0,23.45,African'zuri
230,Honiara,SB,76.75,scattered clouds,-9.4333,159.95,Heritage Park Hotel
234,Cozumel,MX,88.95,scattered clouds,20.5083,-86.9458,Cozumel Palace® All Inclusive Resort
235,Itupiranga,BR,91.72,scattered clouds,-5.1347,-49.3267,Hotel Panorama
242,Kawalu,ID,73.11,overcast clouds,-7.3817,108.2082,West Jontor
243,Elizabeth City,US,88.0,clear sky,36.2946,-76.2511,Hampton Inn Elizabeth City
244,Bykovo,RU,77.41,clear sky,55.6361,38.0803,Around the world
247,Sao Gabriel Da Cachoeira,BR,85.8,scattered clouds,-0.1303,-67.0892,Alarne - Área De Lazer Do Alto Rio Negro
249,Coahuayana,MX,89.26,scattered clouds,18.7333,-103.6833,El rranchito michuacan de ocampos
250,Santa Helena De Goias,BR,87.73,clear sky,-17.8136,-50.5969,Castro Castle Hotel
253,Talcher,IN,80.83,light rain,20.95,85.2167,Hotel Green Park
254,Guerrero Negro,MX,73.9,clear sky,27.9769,-114.0611,"Casa Laguna, Bed & Breakfast"
255,Yamada,JP,70.68,scattered clouds,39.4667,141.95,Iroha-ya Inn
256,Petrinja,HR,84.11,clear sky,45.4375,16.29,Gostionica Mis
258,Disraeli,CA,74.21,broken clouds,45.9001,-71.3491,Auberge De La Chanterelle
261,Virginia Beach,US,90.01,scattered clouds,36.8529,-75.978,Hilton Virginia Beach Oceanfront
262,Mana,GF,83.61,scattered clouds,5.6592,-53.7767,LE SAMANA
263,Thinadhoo,MV,84.36,overcast clouds,0.5333,72.9333,
265,Pocone,BR,94.19,clear sky,-16.2567,-56.6228,Hotel e Churrascaria Pantaneira
266,Torrijos,ES,93.85,scattered clouds,39.9819,-4.2835,Hotel La Salve
270,Trinidad,BO,87.78,broken clouds,-14.8333,-64.9,Hotel Piesta
271,Acapulco,MX,85.82,scattered clouds,16.8634,-99.8901,HS Hotsson Smart Acapulco
274,Sabzevar,IR,94.28,clear sky,36.2126,57.6819,پزشکی قانونی سبزوار
275,Neosho,US,87.01,overcast clouds,36.869,-94.368,Best Western Big Spring Lodge
277,Naze,JP,77.92,overcast clouds,28.3667,129.4833,Shishime Hotel
279,Bengkulu,ID,74.62,broken clouds,-3.8004,102.2655,Grage Hotel Bengkulu
283,Barra Do Garcas,BR,91.98,clear sky,-15.89,-52.2567,Pousada Tropical
284,Santa Maria,BR,74.5,clear sky,-29.6842,-53.8069,Hotel Morotin
286,Abu Dhabi,AE,91.51,overcast clouds,24.4667,54.3667,Beach Rotana
289,Eydhafushi,MV,82.02,moderate rain,5.1033,73.0708,Soneva Fushi
291,Gazanjyk,TM,85.15,clear sky,39.2446,55.5154,Railway motel
292,Grants Pass,US,73.17,overcast clouds,42.439,-123.3284,Shilo Inns Grants Pass
293,Natal,BR,86.22,scattered clouds,-5.795,-35.2094,Villa Park Hotel | Natal
295,Storsteinnes,NO,86.65,broken clouds,69.2408,19.2344,Tingvoll
296,Kimbe,PG,75.36,broken clouds,-5.5502,150.1429,Kimbe Bay Hotel
300,Kilindoni,TZ,76.51,light rain,-7.9139,39.6668,Bustani B&B
302,Houma,US,91.0,scattered clouds,29.5958,-90.7195,Courtyard by Marriott Houma
303,Samana,DO,89.82,broken clouds,19.2056,-69.3369,The Bannister - Hotel & Yacht Club
304,Port Said,EG,82.38,clear sky,31.2565,32.2841,Aracan Hotel
305,Kashi,CN,92.41,clear sky,39.4547,75.9797,帕米尔青年旅舍
306,Marsh Harbour,BS,82.18,overcast clouds,26.5412,-77.0636,Abaco Beach Resort
307,Sabang,ID,83.86,overcast clouds,5.8933,95.3214,Hotel Citra
309,Tenenkou,ML,80.8,moderate rain,14.4572,-4.9169,
310,Hasaki,JP,75.29,broken clouds,35.7333,140.8333,Inubosaki Kanko Hotel
311,Koutsouras,GR,85.1,clear sky,35.0339,25.9469,The White Houses
313,Kismayo,SO,76.93,scattered clouds,-0.3582,42.5454,Agan-Hotel
314,Hue,VN,86.11,broken clouds,16.4667,107.6,Saigon Morin Hotel
315,Wilmington,US,80.01,moderate rain,34.2257,-77.9447,"Hotel Ballast Wilmington, Tapestry Collection by Hilton"
316,Sampit,ID,74.97,scattered clouds,-2.5333,112.95,Aquarius Boutique Hotel Sampit
317,Kudahuvadhoo,MV,82.62,overcast clouds,2.6708,72.8944,Niyama Private Islands Maldives
318,Mehamn,NO,84.15,clear sky,71.0357,27.8492,Mehamn Arctic Hotel AS
320,Trincomalee,LK,81.19,overcast clouds,8.5711,81.2335,Welcombe Hotel
323,Faanui,PF,78.3,light rain,-16.4833,-151.75,Bora-Bora Pearl Beach Resort & Spa
324,San Miguel,SV,87.46,scattered clouds,13.4833,-88.1833,Excalibur
325,Teguise,ES,75.42,scattered clouds,29.0605,-13.564,B&B La Casona de Nazaret
326,Capreol,CA,70.27,few clouds,46.706,-80.9225,
327,Brigantine,US,88.2,clear sky,39.4101,-74.3646,Legacy Vacation Resorts - Brigantine Beach
328,Port Blair,IN,83.01,broken clouds,11.6667,92.75,"Welcomhotel By ITC Hotels, Bay Island, Port Blair"
329,Marawi,PH,72.12,overcast clouds,7.9986,124.2928,Derogongan Residence
330,Ierapetra,GR,85.14,clear sky,35.01,25.7353,Cretan Villa Hotel & Apartments in Ierapetra Crete.
332,Tura,IN,76.01,broken clouds,25.5198,90.2201,Hotel RIKMAN Continental
334,Linkoping,SE,71.98,few clouds,58.4109,15.6216,Elite Stora Hotellet
337,Torbay,CA,77.77,scattered clouds,47.6666,-52.7314,Gallows Cove
338,Rabo De Peixe,PT,71.11,broken clouds,37.8,-25.5833,Quinta das Giestas
340,Imbituba,BR,72.09,few clouds,-28.24,-48.6703,Praia Hotel Imbituba
341,Caravelas,BR,78.71,scattered clouds,-17.7125,-39.2481,Pousada dos Navegantes
342,Asau,RO,81.52,overcast clouds,46.4333,26.4,Casa Mika Ciobanus
344,Puerto Escondido,MX,86.83,few clouds,15.85,-97.0667,Aldea del Bazar Hotel and Spa
345,Diamantino,BR,93.25,broken clouds,-14.4086,-56.4461,Hotel Delta
346,Celestun,MX,87.44,scattered clouds,20.8667,-90.4,Posada Lilia
349,Iwaki,JP,76.77,clear sky,37.05,140.8833,Toyoko Inn Iwaki Ekimae
350,Mecca,SA,94.6,scattered clouds,21.4267,39.8261,"Makkah Clock Royal Tower, A Fairmont Hotel"
352,Pop,UZ,84.69,clear sky,40.8736,71.1089,Ramz Hotel Pap
353,Ahmadpur,IN,81.63,moderate rain,18.7,76.9333,Satish suryawanshi niwas
357,Aguada De Pasajeros,CU,90.59,clear sky,22.385,-80.8508,CASA MAMÁ
358,Kamaishi,JP,71.76,scattered clouds,39.2667,141.8833,Hotel Route Inn Kamaishi
362,Amarante Do Maranhao,BR,87.01,scattered clouds,-5.5667,-46.7422,Hotéis Caçulinha
363,Bara,NG,86.76,broken clouds,10.3744,10.7288,
367,Dong Hoi,VN,81.41,overcast clouds,17.4833,106.6,Nam Long Hotel
369,Ilinskiy,RU,77.38,clear sky,55.619,38.1182,Around the world
370,Zalalovo,HU,79.57,clear sky,46.848,16.5875,Sabaria Vadása Panzió
372,Lengshuijiang,CN,76.19,overcast clouds,27.6881,111.4294,Sheraton
373,Port Elizabeth,ZA,79.09,clear sky,-33.918,25.5701,39 On Nile Guest House
374,Argalasti,GR,86.58,clear sky,39.2333,23.2167,Kalama Hotel apartments
375,Abu Zabad,SD,84.56,light rain,12.35,29.25,حامد محمد نور
376,Never,FR,80.8,clear sky,46.9896,3.159,Hôtel Kyriad Nevers Centre
377,Sur,OM,90.91,overcast clouds,22.5667,59.5289,Sur Plaza Hotel
378,Oranjestad,AW,87.75,scattered clouds,12.524,-70.027,Divi Village Golf & Beach Resort
381,Uaua,BR,81.14,overcast clouds,-9.8414,-39.4817,Hotel Uauá
382,Mazyr,BY,73.06,scattered clouds,52.0495,29.2456,Euro Mini-Hotel
388,Kulhudhuffushi,MV,82.29,overcast clouds,6.6221,73.07,Haajy Guest House 1
390,Bairiki,KI,78.8,light intensity shower rain,1.3292,172.9752,Tarawa Boutique Hotel
397,Mundi,IN,82.99,light rain,22.0667,76.5,TIWARI NIWAS
399,Riberalta,BO,88.0,broken clouds,-10.9833,-66.1,Hotel Colonial
400,Ottawa,CA,79.99,few clouds,45.4112,-75.6981,Delta Hotels by Marriott Ottawa City Centre
401,Hammerfest,NO,84.65,clear sky,70.6634,23.6821,Skytterhuset
402,Sfantu Gheorghe,RO,73.92,overcast clouds,45.8667,25.7833,Hotel Park
404,Cayenne,GF,87.84,few clouds,4.9333,-52.3333,Hôtel Le Dronmi
408,Havelock,US,84.16,broken clouds,34.8791,-76.9013,Sherwood Motel
409,Berlevag,NO,84.2,clear sky,70.8578,29.0864,Kvitbrakka
411,Lucapa,AO,75.61,clear sky,-8.4192,20.7447,Lírio Mendes
413,Saurimo,AO,71.02,clear sky,-9.6608,20.3916,Hotel Kawissa Saurimo
414,Westford,US,81.45,few clouds,42.5793,-71.4378,Westford Regency Inn and Conference Center
417,La Libertad,EC,71.26,broken clouds,-2.2333,-80.9,Playa Canela Hotel Boutique
418,Vao,NC,72.41,overcast clouds,-22.6667,167.4833,Hotel Kou-Bugny
419,Tarakan,ID,80.1,broken clouds,3.3,117.6333,RedDoorz Syariah near Taman Berlabuh Tarakan
421,Abancay,PE,73.08,few clouds,-13.6339,-72.8814,Siball Hotel
424,Nouadhibou,MR,78.78,clear sky,20.931,-17.0347,El Medina
426,Kavaratti,IN,82.47,overcast clouds,10.5669,72.642,Hotels in Lakshadweep Islands
427,Sulina,RO,74.79,clear sky,45.1559,29.6536,Hotel Delta Est
428,Pangai,TO,77.05,light rain,-19.8,-174.35,Ha'apai Beach Resort
433,Nago,JP,79.65,light rain,26.5881,127.9761,Hotel Yugaf Inn Okinawa
436,Gouyave,GD,84.97,few clouds,12.1646,-61.7296,Rumboat Retreat
438,Shimoda,JP,78.1,few clouds,34.6667,138.95,Shimoda Tokyu Hotel
439,Havre-Saint-Pierre,CA,71.96,clear sky,50.2334,-63.5986,Auberge Niapiskau
442,Tabou,CI,78.66,few clouds,4.423,-7.3528,hotêl doufoulougou
445,Bathsheba,BB,88.41,scattered clouds,13.2167,-59.5167,Atlantis Hotel
447,Sayyan,YE,71.67,overcast clouds,15.1718,44.3244,ملاطف ابوحورية
448,Bossangoa,CF,70.68,overcast clouds,6.4926,17.4552,LA PERLE DE BOSTON
449,Yumen,CN,74.89,broken clouds,40.2833,97.2,
450,Morehead,US,88.95,clear sky,37.2711,-87.1764,CCI Express Inn
451,Akom,CM,74.88,overcast clouds,2.6678,12.7109,Complexe Hôtelier Jeannette
453,Vila Velha,BR,82.35,scattered clouds,-20.3297,-40.2925,Hotel Vitória Palace
454,Yatou,CN,71.04,scattered clouds,37.15,122.3833,GreenTree Hotel Rongcheng Bus Station
460,Kurumkan,RU,73.42,clear sky,54.3,110.3,Ilikchin
461,Contai,IN,83.23,scattered clouds,21.7786,87.7536,PATHFINDER
462,Gezing,AT,73.81,clear sky,47.9178,13.1299,Landhaus Brieger
463,Buchanan,LR,79.43,light rain,5.8808,-10.0467,Kamaneahn Hotel Inc
464,Loubomo,CG,80.58,scattered clouds,-4.1997,12.6739,La Dolisienne
465,Kaduqli,SD,86.38,overcast clouds,11.0167,29.7167,Nussyba
466,Bokajan,IN,77.99,scattered clouds,26.0167,93.7833,Priyanka Lodge
468,Kisaran,ID,77.97,overcast clouds,2.9845,99.6158,Penginapan Batubara1
473,Winnemucca,US,77.05,clear sky,40.973,-117.7357,Winners Inn Casino
475,Fairview,US,89.74,few clouds,40.8126,-73.999,Homewood Suites by Hilton Edgewater-NYC Area
476,Puerto Penasco,MX,87.91,clear sky,31.3167,-113.5333,Playa Bonita Resort
477,Grinnell,US,84.18,clear sky,41.743,-92.7224,"Country Inn & Suites by Radisson, Grinnell, IA"
480,Tema,GH,81.01,scattered clouds,5.667,-0.0166,Beulah Royale Hotel Tema
481,Buala,SB,79.66,light rain,-8.145,159.5921,Maringe Lagoon Lodge
482,Catalina Foothills,US,88.97,clear sky,32.2979,-110.9187,The Westin La Paloma Resort & Spa
483,Port Moresby,PG,76.42,broken clouds,-9.4431,147.1797,Lamana Hotel (Port Moresby)
484,Bocanda,CI,76.41,moderate rain,7.0626,-4.4995,Résidence Hôtel
485,Guaruja,BR,78.84,clear sky,-23.9931,-46.2564,Charme Hotel Guarujá
487,Aden,YE,87.53,broken clouds,12.7794,45.0367,Sama Emirate Hotel
488,Sinnamary,GF,82.9,scattered clouds,5.3833,-52.95,ALETHEIA Appartement Sinnamary
489,Turan,VN,85.98,scattered clouds,16.0678,108.2208,Grand Mercure Danang
491,Cairns,AU,72.07,overcast clouds,-16.9167,145.7667,Mantra Trilogy Cairns
495,Alikalia,SL,76.8,moderate rain,9.1667,-11.4,
496,Peniche,PT,78.08,clear sky,39.3558,-9.3811,Hotel Star inn Peniche
497,Lethem,GY,87.51,scattered clouds,3.3803,-59.7968,Savannah Inn
499,Pemberton,CA,76.21,broken clouds,50.3164,-122.8027,Pemberton Valley Lodge
500,Shenzhen,CN,84.22,light rain,22.5455,114.0683,Grand Skylight
501,Saint Anthony,US,71.26,moderate rain,45.0205,-93.218,Holiday Inn Express Roseville-St. Paul
503,Jaguaribe,BR,92.01,scattered clouds,-5.8906,-38.6219,Hotel Pinheiro
504,Ferme-Neuve,CA,74.75,clear sky,46.7001,-75.4493,Pourvoirie Club Fontbrune Ltee
505,Piacabucu,BR,79.41,few clouds,-10.4056,-36.4344,Piaçabuçu News
506,San Andres,CO,86.02,scattered clouds,12.5847,-81.7006,Hotel Arena Blanca
509,Manicore,BR,87.75,few clouds,-5.8092,-61.3003,Hotel Durval
511,Auki,SB,78.91,broken clouds,-8.7676,160.7034,Auki Motel
512,Bandarbeyla,SO,77.79,overcast clouds,9.4942,50.8122,JABIR HOTEL
516,Taclobo,PH,84.29,overcast clouds,12.3074,122.586,Seabreeze Inn
519,San Policarpo,PH,82.99,overcast clouds,12.1791,125.5072,Agapita M. Nicart
522,Progreso,MX,89.11,few clouds,21.2833,-89.6667,Playa Linda Hotel
523,Maneadero,MX,72.1,clear sky,31.7167,-116.5667,Casa De Thompson
524,Kuala Kedah,MY,80.58,few clouds,6.1,100.3,Artini Homestay
525,Padre Bernardo,BR,88.16,broken clouds,-15.35,-48.5,
526,Wadi Musa,JO,74.71,clear sky,30.3222,35.4793,Petra Palace Hotel
527,Tadepallegudem,IN,83.46,overcast clouds,16.8333,81.5,Hotel Selection Grand
528,Pilar,BR,75.13,scattered clouds,-9.5972,-35.9567,Pousada e churrascaria Manguaba
530,Kovdor,RU,78.21,few clouds,67.5662,30.4758,Derevo Zhelaniy
531,Marathon,US,76.24,clear sky,44.9,-89.7668,
532,Dossor,KZ,73.56,light rain,47.5272,52.9811,"Gostinitsa Orpk ""Nauryz"""
533,Paracuru,BR,82.11,broken clouds,-3.41,-39.0306,Hotel Vento Brasil
538,Shingu,JP,75.24,light rain,33.7333,135.9833,Shingu UI Hotel
539,Ananindeua,BR,89.51,broken clouds,-1.3656,-48.3722,Casa de Retiro Preciosinas
542,Aljezur,PT,72.99,scattered clouds,37.3191,-8.8033,Amazigh Hostel
543,Loralai,PK,85.51,few clouds,30.3705,68.598,Saddam Hotel & Resturant
544,Mbandaka,CD,74.46,broken clouds,0.0487,18.2603,Guest House Epervier
545,Hamilton,US,85.64,scattered clouds,39.1834,-84.5333,Six Acres Bed & Breakfast
546,Mangrol,IN,83.08,overcast clouds,21.1167,70.1167,Hotel The Royal Honours
548,Gilgit,PK,92.62,clear sky,35.9221,74.3087,Tourist Hamlet Gilgit
549,Robertsport,LR,78.31,light rain,6.7533,-11.3686,Kwepunha Retreat
551,Namatanai,PG,79.03,scattered clouds,-3.6667,152.4333,Seagulls Inn Namatani
552,Abong Mbang,CM,74.97,overcast clouds,3.9833,13.1833,Auberge Angle Sur
553,Zehdenick,DE,78.91,clear sky,52.9785,13.3317,Grundmann Pension Lindenhof
554,Barcelona,ES,87.8,clear sky,41.3888,2.159,Axel Hotel Barcelona
556,Cape Coast,GH,78.35,broken clouds,5.1053,-1.2466,Samrit Hotel
557,Lazaro Cardenas,MX,86.5,overcast clouds,17.9583,-102.2,HOTEL QUINTA ANTIGUA
558,Cedar City,US,82.4,clear sky,37.6775,-113.0619,Hampton Inn Cedar City
560,Agua Prieta,MX,78.37,broken clouds,31.3,-109.5667,Hotel Real de Agua Prieta
561,Moissala,TD,72.14,overcast clouds,8.3404,17.7663,
563,Puerto Carreno,CO,86.9,broken clouds,6.189,-67.4859,Casa Hotel Victoria
565,Svoge,BG,82.27,light rain,42.9667,23.35,Маймун Дере
566,Westport,US,89.37,clear sky,41.1415,-73.3579,The Westport Inn
567,Mbini,GQ,77.58,light rain,1.574,9.6134,
568,Rawah,IQ,94.35,clear sky,34.4816,41.9093,بيت سميع
572,Ilebo,CD,80.83,overcast clouds,-4.3167,20.5833,Hôtel BUMAK
573,Sao Filipe,CV,75.18,few clouds,14.8961,-24.4956,Hotel Xaguate
575,Santa Cruz,BO,84.25,broken clouds,-17.8,-63.1667,Aviador Hotel Boutique
576,Luanda,AO,70.18,clear sky,-8.8368,13.2343,EPIC SANA Luanda
578,Safaga,EG,87.78,clear sky,26.7292,33.9365,Lamar Resort Abu Soma
579,Santa Cruz De Tenerife,ES,76.62,broken clouds,28.4682,-16.2546,Hotel Silken Atlántida Santa Cruz
581,Crnomelj,SI,82.4,clear sky,45.5711,15.1889,Gostilna Müller
582,Jambi,ID,73.76,broken clouds,-1.6,103.6167,ASTON Jambi Hotel & Conference Center
583,Miranda,CO,82.65,overcast clouds,3.2499,-76.2281,unidiversidad organica la utopia
585,Manggar,ID,80.6,scattered clouds,-2.8833,108.2667,Guest Hotel
588,Issia,CI,77.5,moderate rain,6.4922,-6.5856,Résidence Hôtel Ange Anaé
589,Sarab,IR,79.88,broken clouds,38.6066,44.9883,مسجد امام رضا
590,Indiana,US,82.96,clear sky,40.0003,-86.2503,WonderTree
591,San Patricio,US,94.06,clear sky,28.017,-97.5169,"Motel 6 Sinton, TX"
592,Cascavel,BR,76.6,clear sky,-24.9558,-53.4553,Copas Executive Hotel
595,Ixtapa,MX,87.22,broken clouds,20.7,-105.2,hotel la terminal
596,Abha,SA,78.62,clear sky,18.2164,42.5053,Abha Hotel
597,Inongo,CD,75.58,broken clouds,-1.95,18.2667,Hotel Du Lac
605,Sakaiminato,JP,82.38,scattered clouds,35.55,133.2333,Italian pasley
606,Itaituba,BR,91.56,scattered clouds,-4.2761,-55.9836,Hotel Campos
607,Fougeres,FR,76.86,clear sky,48.35,-1.2,Best Western Hotel des Voyageurs
609,Carutapera,BR,80.78,few clouds,-1.195,-46.02,Lidera
611,Bambanglipuro,ID,76.14,scattered clouds,-7.95,110.2833,Puri Brata
613,Praia,CV,81.14,scattered clouds,14.9215,-23.5087,LT Aparthotel
614,Seydi,TM,92.75,clear sky,39.4816,62.9137,Seydi oteli
616,Loandjili,CG,73.85,few clouds,-4.7561,11.8578,Résidence ARCHANGE
617,Shubarshi,KZ,77.68,scattered clouds,48.5872,57.1869,
618,Monrovia,LR,80.37,light rain,6.3005,-10.7969,Sunset Inn
619,Garchitorena,PH,81.72,light rain,13.8804,123.6946,Site
620,Pathein,MM,78.01,overcast clouds,16.7833,94.7333,Pathein Hotel
621,Gushikawa,JP,78.8,mist,26.3544,127.8686,Kirari Guest House
622,Vanimo,PG,77.32,overcast clouds,-2.6741,141.3028,Vahmoneh Lodge Vanimo
624,Shache,CN,89.74,clear sky,38.4167,77.2406,Delong Hotel
627,Beaufort,MY,74.88,scattered clouds,5.3473,115.7455,The Gem Hotel Beaufort
628,Muret,FR,90.61,scattered clouds,43.3333,1.25,Logis Hôtel l'Arche de Noé
629,Yining,CN,77.79,heavy intensity rain,29.0361,114.5636,Xiushui Hotel
632,Nautla,MX,89.28,scattered clouds,20.2167,-96.7833,Casa Blanca
633,Watertown,US,82.74,few clouds,42.3709,-71.1828,16 Washburn Street Watertown MA
634,Mori,JP,81.45,scattered clouds,34.8333,137.9333,YAMAHA Resort Hotel Katsuragi Kitanomaru
636,Kampot,KH,84.25,overcast clouds,10.6167,104.1833,Two Moons Hotel
639,Koumac,NC,72.77,overcast clouds,-20.5667,164.2833,Le Monitel
640,Morganton,US,90.81,clear sky,35.7454,-81.6848,Hampton Inn Morganton
642,Ceres,US,79.81,clear sky,37.5949,-120.9577,Howard Johnson by Wyndham Modesto Ceres
643,Buchloe,DE,75.18,clear sky,48.0333,10.7333,Alpenflair - Christian Knie
644,Sigli,ID,79.14,overcast clouds,5.3848,95.9609,Losmen Dua Mali
645,Lata,PT,82.49,few clouds,40.1629,-8.3327,Casa Maquia
647,Marrakesh,MA,91.47,few clouds,31.6315,-8.0083,Les Jardins de La Koutoubia
648,Gariaband,IN,78.26,light rain,20.635,82.0614,हंसराज ट्रैक्टर
649,Ahuimanu,US,76.75,broken clouds,21.4447,-157.8378,Paradise Bay Resort
651,Ibra,OM,93.61,overcast clouds,22.6906,58.5334,مزرعة راحة النفوس المنزفة
652,Nara,JP,82.49,overcast clouds,34.6851,135.8049,Guesthouse Nara Komachi
654,Sola,VU,80.69,few clouds,-13.8833,167.55,Leumerus Bungalows
655,Puerto Colombia,CO,86.09,overcast clouds,10.9878,-74.9547,Hotel El Emigrante
656,Camacha,PT,71.02,few clouds,33.0833,-16.3333,Hotel Porto Santo & Spa
658,Pandan,PH,80.51,light rain,14.0453,124.1694,Bonifacio Lodge
659,Skjervoy,NO,87.8,clear sky,70.0311,20.9714,Skjervøy fiskecamp AS
661,Angoram,PG,73.08,overcast clouds,-4.0625,144.0661,
662,Palmer,US,81.25,broken clouds,42.1584,-72.3287,Wedgewood Motel
663,Djambala,CG,81.09,broken clouds,-2.5447,14.7533,Hotel Ravin D'or
667,Colonial Heights,US,90.81,scattered clouds,37.268,-77.4073,Hilton Garden Inn Richmond South/Southpark
668,Banda Aceh,ID,81.63,overcast clouds,5.5577,95.3222,OYO 884 Rumoh PMI Hotel
669,Sao Jose Da Coroa Grande,BR,78.3,scattered clouds,-8.8978,-35.1478,Crôa Mares Hotel
672,Tamandare,BR,78.22,scattered clouds,-8.7597,-35.1047,Pousada 100 Passos
675,Lamont,US,88.54,clear sky,35.2597,-118.9143,Buena Vista Mobile Home Park
678,Aksu,CN,85.19,broken clouds,41.1231,80.2644,Pudong Holiday Hotel
679,Isangel,VU,73.87,broken clouds,-19.55,169.2667,Tanna Lodge
681,Kasongo-Lunda,CD,80.49,clear sky,-6.4667,16.8167,
682,Hammond,US,85.14,clear sky,41.5834,-87.5,"Courtyard by Marriott Chicago Southeast/Hammond, IN"
683,Labuhan,ID,78.22,scattered clouds,-6.8844,112.2051,DoubleFAG
684,Riverbank,US,81.52,clear sky,37.736,-120.9355,Olive Lane Trailer Park
